{"type":"FeatureCollection","features":[{"type":"Feature","properties":{"name":"Leuven"},"geometry":{"coordinates":[4.7012357290908255,50.879210301024216],"type":"Point"},"id":0},{"type":"Feature","properties":{"name":"Toronto"},"geometry":{"coordinates":[-79.38330348078718,43.647516987768455],"type":"Point"},"id":1},{"type":"Feature","properties":{"name":"Paris"},"geometry":{"coordinates":[2.348224881883908,48.852830345138244],"type":"Point"},"id":2},{"type":"Feature","properties":{"name":"HongKong"},"geometry":{"coordinates":[114.16320591453194,22.2751266938414],"type":"Point"},"id":3},{"type":"Feature","properties":{"name":"NewDelhi"},"geometry":{"coordinates":[77.20946820658742,28.611979666118316],"type":"Point"},"id":4},{"type":"Feature","properties":{"name":"Chandigarh"},"geometry":{"coordinates":[76.78436745969037,30.739545210195303],"type":"Point"},"id":5},{"type":"Feature","properties":{"name":"Nishinomiya"},"geometry":{"coordinates":[135.33991220137113,34.7348120574577],"type":"Point"},"id":6},{"type":"Feature","properties":{"name":"Orebro"},"geometry":{"coordinates":[15.211489112258676,59.27222903531694],"type":"Point"},"id":7},{"type":"Feature","properties":{"name":"Oxford"},"geometry":{"coordinates":[-1.2587413701898527,51.75348844873133],"type":"Point"},"id":8},{"type":"Feature","properties":{"name":"London"},"geometry":{"coordinates":[-0.12783771473107208,51.505236651527355],"type":"Point"},"id":9},{"type":"Feature","properties":{"name":"NewYork"},"geometry":{"coordinates":[-74.00536759293924,40.71218179776562],"type":"Point"},"id":10},{"type":"Feature","properties":{"name":"Miami"},"geometry":{"coordinates":[-80.19181913250848,25.772224418830575],"type":"Point"},"id":11},{"type":"Feature","properties":{"name":"Chicago"},"geometry":{"coordinates":[-87.63189175388027,41.881346483457946],"type":"Point"},"id":12}]}